{
  "1.mp4": {
    "location_id": "Uppal",
    "area_m2": 1000.0,
    "roi": [],
    "lat": 17.4025091,
    "lon": 78.5612562
  },
  "2.mp4": {
    "location_id": "Nagole",
    "area_m2": 1000.0,
    "roi": [],
    "lat": 17.3775306,
    "lon": 78.5601231
  },
  "tmpcdq_60z7.mp4": {
    "location_id": "KPHB",
    "area_m2": 1000.0,
    "roi": [],
    "lat": 17.4933,
    "lon": 78.3996
  },
  "tmps8nte2to.mp4": {
    "location_id": "HITEC City",
    "area_m2": 1000.0,
    "roi": [],
    "lat": 17.4435,
    "lon": 78.3772
  },
  "4k video Crowd waiting to get into queue evening shot tear temple Free Video Stock Footage - Free Video Stock Footages (1080p, h264).mp4": {
    "location_id": "Secunderabad",
    "area_m2": 1000.0,
    "roi": [],
    "lat": 17.4337246,
    "lon": 78.5006827
  },
  "tmp1gytz0l5.mp4": {
    "location_id": "Tank Bund",
    "area_m2": 1000.0,
    "roi": [],
    "lat": 17.4156,
    "lon": 78.4747
  },
  "tmpqgfpqu66.mp4": {
    "location_id": "Tank Bund",
    "area_m2": 1000.0,
    "roi": [],
    "lat": 17.4156,
    "lon": 78.4747
  },
  "tmpvzvudr5u.mp4": {
    "location_id": "KPHB",
    "area_m2": 1000.0,
    "roi": [],
    "lat": 17.4933,
    "lon": 78.3996
  },
  "tmp7831qn_j.mp4": {
    "location_id": "Tank Bund",
    "area_m2": 1000.0,
    "roi": [],
    "lat": 17.4156,
    "lon": 78.4747
  },
  "tmp7yb7pxv7.mp4": {
    "location_id": "Secunderabad Junction",
    "area_m2": 1000.0,
    "roi": [],
    "lat": 17.4399,
    "lon": 78.4983
  },
  "tmpc0j9uaue.mp4": {
    "location_id": "Secunderabad Junction",
    "area_m2": 1000.0,
    "roi": [],
    "lat": 17.4399,
    "lon": 78.4983
  },
  "tmpnffvevjj.mp4": {
    "location_id": "HITEC City",
    "area_m2": 1000.0,
    "roi": [],
    "lat": 17.4435,
    "lon": 78.3772
  },
  "tmpjas2rkup.mp4": {
    "location_id": "Begumpet",
    "area_m2": 1000.0,
    "roi": [],
    "lat": 17.4566,
    "lon": 78.501
  },
  "tmplv3o7z5e.mp4": {
    "location_id": "KPHB",
    "area_m2": 1000.0,
    "roi": [],
    "lat": 17.4933,
    "lon": 78.3996
  },
  "tmp_p7d8j8x.mp4": {
    "location_id": "KPHB",
    "area_m2": 1000.0,
    "roi": [],
    "lat": 17.4933,
    "lon": 78.3996
  },
  "tmprprqjseh.mp4": {
    "location_id": "Secunderabad Junction",
    "area_m2": 1000.0,
    "roi": [],
    "lat": 17.4399,
    "lon": 78.4983
  },
  "tmpcw04k13w.mp4": {
    "location_id": "Charminar",
    "area_m2": 1000.0,
    "roi": [],
    "lat": 17.385,
    "lon": 78.4867
  },
  "tmpru571lo5.mp4": {
    "location_id": "Charminar",
    "area_m2": 1000.0,
    "roi": [],
    "lat": 17.385,
    "lon": 78.4867
  },
  "tmp_919m8nq.mp4": {
    "location_id": "Begumpet",
    "area_m2": 1000.0,
    "roi": [],
    "lat": 17.4566,
    "lon": 78.501
  },
  "tmpjbzbpji1.mp4": {
    "location_id": "Tank Bund",
    "area_m2": 1000.0,
    "roi": [],
    "lat": 17.4156,
    "lon": 78.4747
  },
  "tmp4wuugqd5.mp4": {
    "location_id": "LB Nagar",
    "area_m2": 1000.0,
    "roi": [],
    "lat": 17.3566,
    "lon": 78.557
  },
  "Times Square Crowd People 2 HD Video Background - Evaldas Marinskas (1080p, h264).mp4": {
    "location_id": "Abids",
    "area_m2": 1000.0,
    "roi": [],
    "lat": 17.3894783,
    "lon": 78.477182
  },
  "tmpqruymu7z.mp4": {
    "location_id": "LB Nagar",
    "area_m2": 1000.0,
    "roi": [],
    "lat": 17.3566,
    "lon": 78.557
  },
  "tmpyh5t3pwg.mp4": {
    "location_id": "Secunderabad Junction",
    "area_m2": 1000.0,
    "roi": [],
    "lat": 17.4399,
    "lon": 78.4983
  },
  "tmplwj5p4in.mp4": {
    "location_id": "LB Nagar",
    "area_m2": 1000.0,
    "roi": [],
    "lat": 17.3566,
    "lon": 78.557
  },
  "tmpltm0pz_c.mp4": {
    "location_id": "Charminar",
    "area_m2": 1000.0,
    "roi": [],
    "lat": 17.385,
    "lon": 78.4867
  },
  "tmpkkgvc24u.mp4": {
    "location_id": "HITEC City",
    "area_m2": 1000.0,
    "roi": [],
    "lat": 17.4435,
    "lon": 78.3772
  },
  "tmps49nplqp.mp4": {
    "location_id": "Secunderabad Junction",
    "area_m2": 1000.0,
    "roi": [],
    "lat": 17.4399,
    "lon": 78.4983
  },
  "tmprqcnc9s7.mp4": {
    "location_id": "Begumpet",
    "area_m2": 1000.0,
    "roi": [],
    "lat": 17.4566,
    "lon": 78.501
  },
  "tmpbay0en18.mp4": {
    "location_id": "HITEC City",
    "area_m2": 1000.0,
    "roi": [],
    "lat": 17.4435,
    "lon": 78.3772
  },
  "tmpjutshsv3.mp4": {
    "location_id": "Tank Bund",
    "area_m2": 1000.0,
    "roi": [],
    "lat": 17.4156,
    "lon": 78.4747
  },
  "tmp_1x0qulw.mp4": {
    "location_id": "HITEC City",
    "area_m2": 1000.0,
    "roi": [],
    "lat": 17.4435,
    "lon": 78.3772
  },
  "tmpfsr_5d0c.mp4": {
    "location_id": "Begumpet",
    "area_m2": 1000.0,
    "roi": [],
    "lat": 17.4566,
    "lon": 78.501
  },
  "tmpbmb2th6y.mp4": {
    "location_id": "LB Nagar",
    "area_m2": 1000.0,
    "roi": [],
    "lat": 17.3566,
    "lon": 78.557
  },
  "tmpkq0l3i_a.mp4": {
    "location_id": "LB Nagar",
    "area_m2": 1000.0,
    "roi": [],
    "lat": 17.3566,
    "lon": 78.557
  },
  "tmp_9g969ao.mp4": {
    "location_id": "Begumpet",
    "area_m2": 1000.0,
    "roi": [],
    "lat": 17.4566,
    "lon": 78.501
  },
  "tmpzfztenb6.mp4": {
    "location_id": "Begumpet",
    "area_m2": 1000.0,
    "roi": [],
    "lat": 17.4566,
    "lon": 78.501
  },
  "tmp97uyn0s3.mp4": {
    "location_id": "Tank Bund",
    "area_m2": 1000.0,
    "roi": [],
    "lat": 17.4156,
    "lon": 78.4747
  },
  "tmpe044c4kt.mp4": {
    "location_id": "Charminar",
    "area_m2": 1000.0,
    "roi": [],
    "lat": 17.385,
    "lon": 78.4867
  },
  "tmpo9r0gys2.mp4": {
    "location_id": "Tank Bund",
    "area_m2": 1000.0,
    "roi": [],
    "lat": 17.4156,
    "lon": 78.4747
  },
  "tmpaswpk4pc.mp4": {
    "location_id": "Tank Bund",
    "area_m2": 1000.0,
    "roi": [],
    "lat": 17.4156,
    "lon": 78.4747
  },
  "tmpn53861s4.mp4": {
    "location_id": "LB Nagar",
    "area_m2": 1000.0,
    "roi": [],
    "lat": 17.3566,
    "lon": 78.557
  },
  "tmpedie_11t.mp4": {
    "location_id": "Charminar",
    "area_m2": 1000.0,
    "roi": [],
    "lat": 17.385,
    "lon": 78.4867
  },
  "tmpqjhsibw2.mp4": {
    "location_id": "KPHB",
    "area_m2": 1000.0,
    "roi": [],
    "lat": 17.4933,
    "lon": 78.3996
  },
  "tmpe_v6ul73.mp4": {
    "location_id": "KPHB",
    "area_m2": 1000.0,
    "roi": [],
    "lat": 17.4933,
    "lon": 78.3996
  },
  "tmpl2lf08f0.mp4": {
    "location_id": "Charminar",
    "area_m2": 1000.0,
    "roi": [],
    "lat": 17.385,
    "lon": 78.4867
  },
  "tmp0amwajcu.mp4": {
    "location_id": "Secunderabad Junction",
    "area_m2": 1000.0,
    "roi": [],
    "lat": 17.4399,
    "lon": 78.4983
  },
  "tmpcnq8j577.mp4": {
    "location_id": "Tank Bund",
    "area_m2": 1000.0,
    "roi": [],
    "lat": 17.4156,
    "lon": 78.4747
  },
  "tmpcjwd4hvu.mp4": {
    "location_id": "HITEC City",
    "area_m2": 1000.0,
    "roi": [],
    "lat": 17.4435,
    "lon": 78.3772
  },
  "tmpfl__5gp3.mp4": {
    "location_id": "Charminar",
    "area_m2": 1000.0,
    "roi": [],
    "lat": 17.385,
    "lon": 78.4867
  },
  "tmp3zzg12fh.mp4": {
    "location_id": "KPHB",
    "area_m2": 1000.0,
    "roi": [],
    "lat": 17.4933,
    "lon": 78.3996
  },
  "tmpqfrbmik6.mp4": {
    "location_id": "Begumpet",
    "area_m2": 1000.0,
    "roi": [],
    "lat": 17.4566,
    "lon": 78.501
  },
  "tmprr8bp5rn.mp4": {
    "location_id": "Secunderabad Junction",
    "area_m2": 1000.0,
    "roi": [],
    "lat": 17.4399,
    "lon": 78.4983
  },
  "tmpv7g45yru.mp4": {
    "location_id": "LB Nagar",
    "area_m2": 1000.0,
    "roi": [],
    "lat": 17.3566,
    "lon": 78.557
  },
  "tmphr68e9t0.mp4": {
    "location_id": "KPHB",
    "area_m2": 1000.0,
    "roi": [],
    "lat": 17.4933,
    "lon": 78.3996
  },
  "tmpyoky494b.mp4": {
    "location_id": "Secunderabad Junction",
    "area_m2": 1000.0,
    "roi": [],
    "lat": 17.4399,
    "lon": 78.4983
  },
  "tmpkd4w7oxf.mp4": {
    "location_id": "Tank Bund",
    "area_m2": 1000.0,
    "roi": [],
    "lat": 17.4156,
    "lon": 78.4747
  },
  "tmp6_gh8dsj.mp4": {
    "location_id": "Begumpet",
    "area_m2": 1000.0,
    "roi": [],
    "lat": 17.4566,
    "lon": 78.501
  },
  "tmp5q4qz_ft.mp4": {
    "location_id": "Begumpet",
    "area_m2": 1000.0,
    "roi": [],
    "lat": 17.4566,
    "lon": 78.501
  },
  "tmpeaecs9hs.mp4": {
    "location_id": "HITEC City",
    "area_m2": 1000.0,
    "roi": [],
    "lat": 17.4435,
    "lon": 78.3772
  },
  "tmpodt4wvla.mp4": {
    "location_id": "Tank Bund",
    "area_m2": 1000.0,
    "roi": [],
    "lat": 17.4156,
    "lon": 78.4747
  },
  "tmpx4e9roco.mp4": {
    "location_id": "KPHB",
    "area_m2": 1000.0,
    "roi": [],
    "lat": 17.4933,
    "lon": 78.3996
  },
  "tmpprl4ct8p.mp4": {
    "location_id": "Charminar",
    "area_m2": 1000.0,
    "roi": [],
    "lat": 17.385,
    "lon": 78.4867
  },
  "tmpqme2k49z.mp4": {
    "location_id": "Begumpet",
    "area_m2": 1000.0,
    "roi": [],
    "lat": 17.4566,
    "lon": 78.501
  },
  "tmpam8ztza8.mp4": {
    "location_id": "Begumpet",
    "area_m2": 1000.0,
    "roi": [],
    "lat": 17.4566,
    "lon": 78.501
  },
  "tmpj86o11vt.mp4": {
    "location_id": "KPHB",
    "area_m2": 1000.0,
    "roi": [],
    "lat": 17.4933,
    "lon": 78.3996
  },
  "tmpm8tl7m6a.mp4": {
    "location_id": "LB Nagar",
    "area_m2": 1000.0,
    "roi": [],
    "lat": 17.3566,
    "lon": 78.557
  },
  "tmpdgcfs5mc.mp4": {
    "location_id": "HITEC City",
    "area_m2": 1000.0,
    "roi": [],
    "lat": 17.4435,
    "lon": 78.3772
  },
  "tmpm90qncmc.mp4": {
    "location_id": "Charminar",
    "area_m2": 1000.0,
    "roi": [],
    "lat": 17.385,
    "lon": 78.4867
  },
  "tmpj9x_nb7g.mp4": {
    "location_id": "LB Nagar",
    "area_m2": 1000.0,
    "roi": [],
    "lat": 17.3566,
    "lon": 78.557
  },
  "tmp5kmn0yuu.mp4": {
    "location_id": "Secunderabad Junction",
    "area_m2": 1000.0,
    "roi": [],
    "lat": 17.4399,
    "lon": 78.4983
  },
  "tmpbzyi73fa.mp4": {
    "location_id": "Begumpet",
    "area_m2": 1000.0,
    "roi": [],
    "lat": 17.4566,
    "lon": 78.501
  },
  "tmplxriumiu.mp4": {
    "location_id": "Secunderabad Junction",
    "area_m2": 1000.0,
    "roi": [],
    "lat": 17.4399,
    "lon": 78.4983
  },
  "tmpx0xqw3iq.mp4": {
    "location_id": "Begumpet",
    "area_m2": 1000.0,
    "roi": [],
    "lat": 17.4566,
    "lon": 78.501
  },
  "tmp94rh17cp.mp4": {
    "location_id": "Marredpally",
    "area_m2": 1000.0,
    "roi": [],
    "lat": 17.4479,
    "lon": 78.5029
  },
  "tmpiie7th34.mp4": {
    "location_id": "Charminar",
    "area_m2": 1000.0,
    "roi": [],
    "lat": 17.385,
    "lon": 78.4867
  },
  "tmpxqqpd4z5.mp4": {
    "location_id": "Charminar",
    "area_m2": 1000.0,
    "roi": [],
    "lat": 17.385,
    "lon": 78.4867
  },
  "tmp8pk8fuay.mp4": {
    "location_id": "Charminar",
    "area_m2": 1000.0,
    "roi": [],
    "lat": 17.385,
    "lon": 78.4867
  },
  "tmp8eam7e06.mp4": {
    "location_id": "Secunderabad railway station",
    "area_m2": 1000.0,
    "roi": [],
    "lat": 17.4399,
    "lon": 78.4983
  },
  "tmpb4k5ww1x.mp4": {
    "location_id": "Marredpally",
    "area_m2": 1000.0,
    "roi": [],
    "lat": 17.4479,
    "lon": 78.5029
  },
  "tmph_xqcydn.mp4": {
    "location_id": "Secunderabad railway station",
    "area_m2": 1000.0,
    "roi": [],
    "lat": 17.4399,
    "lon": 78.4983
  },
  "tmpvpem09j5.mp4": {
    "location_id": "Nagole",
    "area_m2": 1000.0,
    "roi": [],
    "lat": 17.3693,
    "lon": 78.5609
  },
  "tmp4u88i2db.mp4": {
    "location_id": "Marredpally",
    "area_m2": 1000.0,
    "roi": [],
    "lat": 17.4479,
    "lon": 78.5029
  },
  "tmpweb9pqap.mp4": {
    "location_id": "Charminar",
    "area_m2": 1000.0,
    "roi": [],
    "lat": 17.385,
    "lon": 78.4867
  },
  "tmpufo3io0b.mp4": {
    "location_id": "Marredpally",
    "area_m2": 1000.0,
    "roi": [],
    "lat": 17.4479,
    "lon": 78.5029
  },
  "tmp3dq1ve8j.mp4": {
    "location_id": "Charminar",
    "area_m2": 1000.0,
    "roi": [],
    "lat": 17.385,
    "lon": 78.4867
  },
  "tmpf5agrc1a.mp4": {
    "location_id": "Nagole",
    "area_m2": 1000.0,
    "roi": [],
    "lat": 17.3693,
    "lon": 78.5609
  },
  "tmpxq9ie60d.mp4": {
    "location_id": "Marredpally",
    "area_m2": 1000.0,
    "roi": [],
    "lat": 17.4479,
    "lon": 78.5029
  },
  "tmp8jyy6wbp.mp4": {
    "location_id": "Secunderabad railway station",
    "area_m2": 1000.0,
    "roi": [],
    "lat": 17.4399,
    "lon": 78.4983
  },
  "tmplw8i2jaq.mp4": {
    "location_id": "Marredpally",
    "area_m2": 1000.0,
    "roi": [],
    "lat": 17.4479,
    "lon": 78.5029
  },
  "tmpx2_kcoq8.mp4": {
    "location_id": "Charminar",
    "area_m2": 1000.0,
    "roi": [],
    "lat": 17.385,
    "lon": 78.4867
  },
  "tmpe7270xn3.mp4": {
    "location_id": "Nagole",
    "area_m2": 1000.0,
    "roi": [],
    "lat": 17.3693,
    "lon": 78.5609
  },
  "tmp1e1w77qf.mp4": {
    "location_id": "Marredpally",
    "area_m2": 1000.0,
    "roi": [],
    "lat": 17.4479,
    "lon": 78.5029
  },
  "tmpygdy296h.mp4": {
    "location_id": "Charminar",
    "area_m2": 1000.0,
    "roi": [],
    "lat": 17.385,
    "lon": 78.4867
  },
  "tmpea0fsj_s.mp4": {
    "location_id": "Marredpally",
    "area_m2": 1000.0,
    "roi": [],
    "lat": 17.4479,
    "lon": 78.5029
  },
  "tmpznc6mucu.mp4": {
    "location_id": "Nagole",
    "area_m2": 1000.0,
    "roi": [],
    "lat": 17.3693,
    "lon": 78.5609
  },
  "3.mp4": {
    "location_id": "Secunderabad railway station",
    "area_m2": 1000.0,
    "roi": [],
    "lat": 17.4399,
    "lon": 78.4983
  },
  "4.mp4": {
    "location_id": "Marredpally",
    "area_m2": 1000.0,
    "roi": [],
    "lat": 17.4479,
    "lon": 78.5029
  },
  "tmp8vy3dpvs.mp4": {
    "location_id": "Marredpally",
    "area_m2": 1000.0,
    "roi": [],
    "lat": 17.4479,
    "lon": 78.5029
  },
  "tmpunqy5z3s.mp4": {
    "location_id": "Marredpally",
    "area_m2": 1000.0,
    "roi": [],
    "lat": 17.4479,
    "lon": 78.5029
  },
  "tmpuzeg5n68.mp4": {
    "location_id": "Charminar",
    "area_m2": 1000.0,
    "roi": [],
    "lat": 17.385,
    "lon": 78.4867
  },
  "tmpxxpo5iju.mp4": {
    "location_id": "Charminar",
    "area_m2": 1000.0,
    "roi": [],
    "lat": 17.385,
    "lon": 78.4867
  },
  "tmpzqhx9kye.mp4": {
    "location_id": "Secunderabad railway station",
    "area_m2": 1000.0,
    "roi": [],
    "lat": 17.4399,
    "lon": 78.4983
  },
  "tmpg49eblg9.mp4": {
    "location_id": "Secunderabad railway station",
    "area_m2": 1000.0,
    "roi": [],
    "lat": 17.4399,
    "lon": 78.4983
  },
  "tmp8rdwx1nz.mp4": {
    "location_id": "Nagole",
    "area_m2": 1000.0,
    "roi": [],
    "lat": 17.3693,
    "lon": 78.5609
  },
  "tmpfi66cqb0.mp4": {
    "location_id": "Nagole",
    "area_m2": 1000.0,
    "roi": [],
    "lat": 17.3693,
    "lon": 78.5609
  },
  "tmpkbfgz7d7.mp4": {
    "location_id": "Secunderabad railway station",
    "area_m2": 1000.0,
    "roi": [],
    "lat": 17.4399,
    "lon": 78.4983
  },
  "tmpvz_yrybp.mp4": {
    "location_id": "Marredpally",
    "area_m2": 1000.0,
    "roi": [],
    "lat": 17.4479,
    "lon": 78.5029
  },
  "tmpnqmtc1tq.mp4": {
    "location_id": "Charminar",
    "area_m2": 1000.0,
    "roi": [],
    "lat": 17.385,
    "lon": 78.4867
  },
  "tmpkyak_swh.mp4": {
    "location_id": "Charminar",
    "area_m2": 1000.0,
    "roi": [],
    "lat": 17.385,
    "lon": 78.4867
  }
}