{
  "1.mp4": {
    "location_id": "Secunderabad Railway Station",
    "area_m2": 1000.0,
    "roi": [],
    "lat": 17.4399,
    "lon": 78.4983
  },
  "2.mp4": {
    "location_id": "Uppal, Telangana",
    "area_m2": 1000.0,
    "roi": [],
    "lat": 17.4056,
    "lon": 78.5596
  },
  "tmpcdq_60z7.mp4": {
    "location_id": "KPHB",
    "area_m2": 1000.0,
    "roi": [],
    "lat": 17.4933,
    "lon": 78.3996
  },
  "tmps8nte2to.mp4": {
    "location_id": "HITEC City",
    "area_m2": 1000.0,
    "roi": [],
    "lat": 17.4435,
    "lon": 78.3772
  },
  "4k video Crowd waiting to get into queue evening shot tear temple Free Video Stock Footage - Free Video Stock Footages (1080p, h264).mp4": {
    "location_id": "KPHB",
    "area_m2": 1000.0,
    "roi": [],
    "lat": 17.4933,
    "lon": 78.3996
  },
  "tmp1gytz0l5.mp4": {
    "location_id": "Tank Bund",
    "area_m2": 1000.0,
    "roi": [],
    "lat": 17.4156,
    "lon": 78.4747
  },
  "tmpqgfpqu66.mp4": {
    "location_id": "Tank Bund",
    "area_m2": 1000.0,
    "roi": [],
    "lat": 17.4156,
    "lon": 78.4747
  },
  "tmpvzvudr5u.mp4": {
    "location_id": "KPHB",
    "area_m2": 1000.0,
    "roi": [],
    "lat": 17.4933,
    "lon": 78.3996
  },
  "tmp7831qn_j.mp4": {
    "location_id": "Tank Bund",
    "area_m2": 1000.0,
    "roi": [],
    "lat": 17.4156,
    "lon": 78.4747
  },
  "tmp7yb7pxv7.mp4": {
    "location_id": "Secunderabad Junction",
    "area_m2": 1000.0,
    "roi": [],
    "lat": 17.4399,
    "lon": 78.4983
  },
  "tmpc0j9uaue.mp4": {
    "location_id": "Secunderabad Junction",
    "area_m2": 1000.0,
    "roi": [],
    "lat": 17.4399,
    "lon": 78.4983
  },
  "tmpnffvevjj.mp4": {
    "location_id": "HITEC City",
    "area_m2": 1000.0,
    "roi": [],
    "lat": 17.4435,
    "lon": 78.3772
  },
  "tmpjas2rkup.mp4": {
    "location_id": "Begumpet",
    "area_m2": 1000.0,
    "roi": [],
    "lat": 17.4566,
    "lon": 78.501
  },
  "tmplv3o7z5e.mp4": {
    "location_id": "KPHB",
    "area_m2": 1000.0,
    "roi": [],
    "lat": 17.4933,
    "lon": 78.3996
  },
  "tmp_p7d8j8x.mp4": {
    "location_id": "KPHB",
    "area_m2": 1000.0,
    "roi": [],
    "lat": 17.4933,
    "lon": 78.3996
  },
  "tmprprqjseh.mp4": {
    "location_id": "Secunderabad Junction",
    "area_m2": 1000.0,
    "roi": [],
    "lat": 17.4399,
    "lon": 78.4983
  },
  "tmpcw04k13w.mp4": {
    "location_id": "Charminar",
    "area_m2": 1000.0,
    "roi": [],
    "lat": 17.385,
    "lon": 78.4867
  },
  "3.mp4": {
    "location_id": "Secunderabad Railway Station",
    "area_m2": 1000.0,
    "roi": [],
    "lat": 17.4399,
    "lon": 78.4983
  },
  "4.mp4": {
    "location_id": "Uppal, Telangana",
    "area_m2": 1000.0,
    "roi": [],
    "lat": 17.4056,
    "lon": 78.5596
  }
}