{
  "1.mp4": {
    "location_id": "Secunderabad Railway Station",
    "area_m2": 1000.0,
    "roi": [],
    "lat": 17.4399,
    "lon": 78.4983
  },
  "2.mp4": {
    "location_id": "Uppal, Telangana",
    "area_m2": 1000.0,
    "roi": [],
    "lat": 17.4056,
    "lon": 78.5596
  },
  "tmpcdq_60z7.mp4": {
    "location_id": "KPHB",
    "area_m2": 1000.0,
    "roi": [],
    "lat": 17.4933,
    "lon": 78.3996
  },
  "tmps8nte2to.mp4": {
    "location_id": "HITEC City",
    "area_m2": 1000.0,
    "roi": [],
    "lat": 17.4435,
    "lon": 78.3772
  },
  "4k video Crowd waiting to get into queue evening shot tear temple Free Video Stock Footage - Free Video Stock Footages (1080p, h264).mp4": {
    "location_id": "KPHB",
    "area_m2": 1000.0,
    "roi": [],
    "lat": 17.4933,
    "lon": 78.3996
  },
  "tmp1gytz0l5.mp4": {
    "location_id": "Tank Bund",
    "area_m2": 1000.0,
    "roi": [],
    "lat": 17.4156,
    "lon": 78.4747
  },
  "tmpqgfpqu66.mp4": {
    "location_id": "Tank Bund",
    "area_m2": 1000.0,
    "roi": [],
    "lat": 17.4156,
    "lon": 78.4747
  },
  "tmpvzvudr5u.mp4": {
    "location_id": "KPHB",
    "area_m2": 1000.0,
    "roi": [],
    "lat": 17.4933,
    "lon": 78.3996
  },
  "tmp7831qn_j.mp4": {
    "location_id": "Tank Bund",
    "area_m2": 1000.0,
    "roi": [],
    "lat": 17.4156,
    "lon": 78.4747
  },
  "tmp7yb7pxv7.mp4": {
    "location_id": "Secunderabad Junction",
    "area_m2": 1000.0,
    "roi": [],
    "lat": 17.4399,
    "lon": 78.4983
  },
  "tmpc0j9uaue.mp4": {
    "location_id": "Secunderabad Junction",
    "area_m2": 1000.0,
    "roi": [],
    "lat": 17.4399,
    "lon": 78.4983
  },
  "tmpnffvevjj.mp4": {
    "location_id": "HITEC City",
    "area_m2": 1000.0,
    "roi": [],
    "lat": 17.4435,
    "lon": 78.3772
  },
  "tmpjas2rkup.mp4": {
    "location_id": "Begumpet",
    "area_m2": 1000.0,
    "roi": [],
    "lat": 17.4566,
    "lon": 78.501
  },
  "tmplv3o7z5e.mp4": {
    "location_id": "KPHB",
    "area_m2": 1000.0,
    "roi": [],
    "lat": 17.4933,
    "lon": 78.3996
  },
  "tmp_p7d8j8x.mp4": {
    "location_id": "KPHB",
    "area_m2": 1000.0,
    "roi": [],
    "lat": 17.4933,
    "lon": 78.3996
  },
  "tmprprqjseh.mp4": {
    "location_id": "Secunderabad Junction",
    "area_m2": 1000.0,
    "roi": [],
    "lat": 17.4399,
    "lon": 78.4983
  },
  "tmpcw04k13w.mp4": {
    "location_id": "Charminar",
    "area_m2": 1000.0,
    "roi": [],
    "lat": 17.385,
    "lon": 78.4867
  },
  "tmpru571lo5.mp4": {
    "location_id": "Charminar",
    "area_m2": 1000.0,
    "roi": [],
    "lat": 17.385,
    "lon": 78.4867
  },
  "tmp_919m8nq.mp4": {
    "location_id": "Begumpet",
    "area_m2": 1000.0,
    "roi": [],
    "lat": 17.4566,
    "lon": 78.501
  },
  "tmpjbzbpji1.mp4": {
    "location_id": "Tank Bund",
    "area_m2": 1000.0,
    "roi": [],
    "lat": 17.4156,
    "lon": 78.4747
  },
  "tmp4wuugqd5.mp4": {
    "location_id": "LB Nagar",
    "area_m2": 1000.0,
    "roi": [],
    "lat": 17.3566,
    "lon": 78.557
  },
  "Times Square Crowd People 2 HD Video Background - Evaldas Marinskas (1080p, h264).mp4": {
    "location_id": "Tank Bund",
    "area_m2": 1000.0,
    "roi": [],
    "lat": 17.4156,
    "lon": 78.4747
  },
  "tmpqruymu7z.mp4": {
    "location_id": "LB Nagar",
    "area_m2": 1000.0,
    "roi": [],
    "lat": 17.3566,
    "lon": 78.557
  },
  "tmpyh5t3pwg.mp4": {
    "location_id": "Secunderabad Junction",
    "area_m2": 1000.0,
    "roi": [],
    "lat": 17.4399,
    "lon": 78.4983
  },
  "tmplwj5p4in.mp4": {
    "location_id": "LB Nagar",
    "area_m2": 1000.0,
    "roi": [],
    "lat": 17.3566,
    "lon": 78.557
  },
  "tmpltm0pz_c.mp4": {
    "location_id": "Charminar",
    "area_m2": 1000.0,
    "roi": [],
    "lat": 17.385,
    "lon": 78.4867
  },
  "tmpkkgvc24u.mp4": {
    "location_id": "HITEC City",
    "area_m2": 1000.0,
    "roi": [],
    "lat": 17.4435,
    "lon": 78.3772
  },
  "tmps49nplqp.mp4": {
    "location_id": "Secunderabad Junction",
    "area_m2": 1000.0,
    "roi": [],
    "lat": 17.4399,
    "lon": 78.4983
  },
  "tmprqcnc9s7.mp4": {
    "location_id": "Begumpet",
    "area_m2": 1000.0,
    "roi": [],
    "lat": 17.4566,
    "lon": 78.501
  },
  "tmpbay0en18.mp4": {
    "location_id": "HITEC City",
    "area_m2": 1000.0,
    "roi": [],
    "lat": 17.4435,
    "lon": 78.3772
  },
  "tmpjutshsv3.mp4": {
    "location_id": "Tank Bund",
    "area_m2": 1000.0,
    "roi": [],
    "lat": 17.4156,
    "lon": 78.4747
  },
  "tmp_1x0qulw.mp4": {
    "location_id": "HITEC City",
    "area_m2": 1000.0,
    "roi": [],
    "lat": 17.4435,
    "lon": 78.3772
  },
  "tmpfsr_5d0c.mp4": {
    "location_id": "Begumpet",
    "area_m2": 1000.0,
    "roi": [],
    "lat": 17.4566,
    "lon": 78.501
  },
  "tmpbmb2th6y.mp4": {
    "location_id": "LB Nagar",
    "area_m2": 1000.0,
    "roi": [],
    "lat": 17.3566,
    "lon": 78.557
  },
  "tmpkq0l3i_a.mp4": {
    "location_id": "LB Nagar",
    "area_m2": 1000.0,
    "roi": [],
    "lat": 17.3566,
    "lon": 78.557
  },
  "tmp_9g969ao.mp4": {
    "location_id": "Begumpet",
    "area_m2": 1000.0,
    "roi": [],
    "lat": 17.4566,
    "lon": 78.501
  },
  "tmpzfztenb6.mp4": {
    "location_id": "Begumpet",
    "area_m2": 1000.0,
    "roi": [],
    "lat": 17.4566,
    "lon": 78.501
  },
  "tmp97uyn0s3.mp4": {
    "location_id": "Tank Bund",
    "area_m2": 1000.0,
    "roi": [],
    "lat": 17.4156,
    "lon": 78.4747
  },
  "tmpe044c4kt.mp4": {
    "location_id": "Charminar",
    "area_m2": 1000.0,
    "roi": [],
    "lat": 17.385,
    "lon": 78.4867
  },
  "tmpo9r0gys2.mp4": {
    "location_id": "Tank Bund",
    "area_m2": 1000.0,
    "roi": [],
    "lat": 17.4156,
    "lon": 78.4747
  },
  "tmpaswpk4pc.mp4": {
    "location_id": "Tank Bund",
    "area_m2": 1000.0,
    "roi": [],
    "lat": 17.4156,
    "lon": 78.4747
  },
  "tmpn53861s4.mp4": {
    "location_id": "LB Nagar",
    "area_m2": 1000.0,
    "roi": [],
    "lat": 17.3566,
    "lon": 78.557
  },
  "tmpedie_11t.mp4": {
    "location_id": "Charminar",
    "area_m2": 1000.0,
    "roi": [],
    "lat": 17.385,
    "lon": 78.4867
  },
  "tmpqjhsibw2.mp4": {
    "location_id": "KPHB",
    "area_m2": 1000.0,
    "roi": [],
    "lat": 17.4933,
    "lon": 78.3996
  },
  "tmpe_v6ul73.mp4": {
    "location_id": "KPHB",
    "area_m2": 1000.0,
    "roi": [],
    "lat": 17.4933,
    "lon": 78.3996
  },
  "tmpl2lf08f0.mp4": {
    "location_id": "Charminar",
    "area_m2": 1000.0,
    "roi": [],
    "lat": 17.385,
    "lon": 78.4867
  },
  "tmp0amwajcu.mp4": {
    "location_id": "Secunderabad Junction",
    "area_m2": 1000.0,
    "roi": [],
    "lat": 17.4399,
    "lon": 78.4983
  },
  "tmpcnq8j577.mp4": {
    "location_id": "Tank Bund",
    "area_m2": 1000.0,
    "roi": [],
    "lat": 17.4156,
    "lon": 78.4747
  },
  "tmpcjwd4hvu.mp4": {
    "location_id": "HITEC City",
    "area_m2": 1000.0,
    "roi": [],
    "lat": 17.4435,
    "lon": 78.3772
  },
  "tmpfl__5gp3.mp4": {
    "location_id": "Charminar",
    "area_m2": 1000.0,
    "roi": [],
    "lat": 17.385,
    "lon": 78.4867
  },
  "tmp3zzg12fh.mp4": {
    "location_id": "KPHB",
    "area_m2": 1000.0,
    "roi": [],
    "lat": 17.4933,
    "lon": 78.3996
  },
  "tmpqfrbmik6.mp4": {
    "location_id": "Begumpet",
    "area_m2": 1000.0,
    "roi": [],
    "lat": 17.4566,
    "lon": 78.501
  },
  "tmprr8bp5rn.mp4": {
    "location_id": "Secunderabad Junction",
    "area_m2": 1000.0,
    "roi": [],
    "lat": 17.4399,
    "lon": 78.4983
  },
  "tmpv7g45yru.mp4": {
    "location_id": "LB Nagar",
    "area_m2": 1000.0,
    "roi": [],
    "lat": 17.3566,
    "lon": 78.557
  },
  "tmphr68e9t0.mp4": {
    "location_id": "KPHB",
    "area_m2": 1000.0,
    "roi": [],
    "lat": 17.4933,
    "lon": 78.3996
  },
  "tmpyoky494b.mp4": {
    "location_id": "Secunderabad Junction",
    "area_m2": 1000.0,
    "roi": [],
    "lat": 17.4399,
    "lon": 78.4983
  },
  "tmpkd4w7oxf.mp4": {
    "location_id": "Tank Bund",
    "area_m2": 1000.0,
    "roi": [],
    "lat": 17.4156,
    "lon": 78.4747
  },
  "tmp6_gh8dsj.mp4": {
    "location_id": "Begumpet",
    "area_m2": 1000.0,
    "roi": [],
    "lat": 17.4566,
    "lon": 78.501
  },
  "tmp5q4qz_ft.mp4": {
    "location_id": "Begumpet",
    "area_m2": 1000.0,
    "roi": [],
    "lat": 17.4566,
    "lon": 78.501
  },
  "tmpeaecs9hs.mp4": {
    "location_id": "HITEC City",
    "area_m2": 1000.0,
    "roi": [],
    "lat": 17.4435,
    "lon": 78.3772
  },
  "tmpodt4wvla.mp4": {
    "location_id": "Tank Bund",
    "area_m2": 1000.0,
    "roi": [],
    "lat": 17.4156,
    "lon": 78.4747
  },
  "tmpx4e9roco.mp4": {
    "location_id": "KPHB",
    "area_m2": 1000.0,
    "roi": [],
    "lat": 17.4933,
    "lon": 78.3996
  },
  "tmpprl4ct8p.mp4": {
    "location_id": "Charminar",
    "area_m2": 1000.0,
    "roi": [],
    "lat": 17.385,
    "lon": 78.4867
  },
  "tmpqme2k49z.mp4": {
    "location_id": "Begumpet",
    "area_m2": 1000.0,
    "roi": [],
    "lat": 17.4566,
    "lon": 78.501
  },
  "tmpam8ztza8.mp4": {
    "location_id": "Begumpet",
    "area_m2": 1000.0,
    "roi": [],
    "lat": 17.4566,
    "lon": 78.501
  },
  "tmpj86o11vt.mp4": {
    "location_id": "KPHB",
    "area_m2": 1000.0,
    "roi": [],
    "lat": 17.4933,
    "lon": 78.3996
  },
  "tmpm8tl7m6a.mp4": {
    "location_id": "LB Nagar",
    "area_m2": 1000.0,
    "roi": [],
    "lat": 17.3566,
    "lon": 78.557
  },
  "tmpdgcfs5mc.mp4": {
    "location_id": "HITEC City",
    "area_m2": 1000.0,
    "roi": [],
    "lat": 17.4435,
    "lon": 78.3772
  }
}